[
  {
    "direccion": "California 4625",
    "lat": -34.639819,
    "lng": -58.37558
  },
  {
    "direccion": "California 4659",
    "lat": -34.645451,
    "lng": -58.389394
  },
  {
    "direccion": "Bucarelli 1186",
    "lat": -34.584683,
    "lng": -58.483384
  },
  {
    "direccion": "Av. Triunvirato 217",
    "lat": -34.577313,
    "lng": -58.48403
  },
  {
    "direccion": "Av. Triunvirato 4611",
    "lat": -34.576528,
    "lng": -58.489232
  },
  {
    "direccion": "Olleros 515",
    "lat": -34.567584,
    "lng": -58.466314
  },
  {
    "direccion": "Yerbal 1927",
    "lat": -34.613811,
    "lng": -58.440665
  },
  {
    "direccion": "Acoyte 3341",
    "lat": -34.619248,
    "lng": -58.450666
  },
  {
    "direccion": "Yerbal 4775",
    "lat": -34.624695,
    "lng": -58.443492
  },
  {
    "direccion": "Charcas 1178",
    "lat": -34.57898,
    "lng": -58.43713
  },
  {
    "direccion": "Quesada 557",
    "lat": -34.571222,
    "lng": -58.491725
  },
  {
    "direccion": "Honduras 2675",
    "lat": -34.579174,
    "lng": -58.433803
  },
  {
    "direccion": "Juramento 1366",
    "lat": -34.553561,
    "lng": -58.449361
  },
  {
    "direccion": "Bucarelli 687",
    "lat": -34.57539,
    "lng": -58.482896
  },
  {
    "direccion": "Charcas 3880",
    "lat": -34.585314,
    "lng": -58.417693
  },
  {
    "direccion": "Av. Santa Fe 3800",
    "lat": -34.581028,
    "lng": -58.427418
  },
  {
    "direccion": "Honduras 1399",
    "lat": -34.582522,
    "lng": -58.428834
  },
  {
    "direccion": "Brandsen 4751",
    "lat": -34.635852,
    "lng": -58.379612
  },
  {
    "direccion": "Av. Cabildo 546",
    "lat": -34.573098,
    "lng": -58.455088
  },
  {
    "direccion": "Bauness 4839",
    "lat": -34.5787,
    "lng": -58.494231
  },
  {
    "direccion": "Defensa 3862",
    "lat": -34.639919,
    "lng": -58.391688
  },
  {
    "direccion": "Thames 2291",
    "lat": -34.584672,
    "lng": -58.431312
  },
  {
    "direccion": "Rojas 2599",
    "lat": -34.624894,
    "lng": -58.432524
  },
  {
    "direccion": "Pareja 887",
    "lat": -34.575296,
    "lng": -58.498398
  },
  {
    "direccion": "Acoyte 1441",
    "lat": -34.626348,
    "lng": -58.446668
  },
  {
    "direccion": "Echeverría 3835",
    "lat": -34.552396,
    "lng": -58.466639
  },
  {
    "direccion": "Rojas 2415",
    "lat": -34.614952,
    "lng": -58.434645
  },
  {
    "direccion": "Juramento 1075",
    "lat": -34.549878,
    "lng": -58.444557
  },
  {
    "direccion": "Brasil 1556",
    "lat": -34.64524,
    "lng": -58.391357
  },
  {
    "direccion": "Brasil 3562",
    "lat": -34.63088,
    "lng": -58.38706
  },
  {
    "direccion": "Yerbal 306",
    "lat": -34.621974,
    "lng": -58.434519
  },
  {
    "direccion": "Soler 4401",
    "lat": -34.580553,
    "lng": -58.423402
  },
  {
    "direccion": "Av. La Plata 4357",
    "lat": -34.622525,
    "lng": -58.446653
  },
  {
    "direccion": "Bucarelli 1459",
    "lat": -34.575147,
    "lng": -58.49617
  },
  {
    "direccion": "Bonpland 403",
    "lat": -34.573947,
    "lng": -58.42991
  },
  {
    "direccion": "Gorriti 3084",
    "lat": -34.579581,
    "lng": -58.428436
  },
  {
    "direccion": "Av. La Plata 2140",
    "lat": -34.625008,
    "lng": -58.440155
  },
  {
    "direccion": "Bucarelli 3703",
    "lat": -34.567442,
    "lng": -58.488442
  }
]
